City_ID,City,Lat,Lng,Max Temp,Humidity,Cloudiness,Wind Speed,Country,Date
0,kapaa,22.0752,-159.319,22.18,94,100,5.66,US,1675547599
1,aykhal,66.0,111.5,-38.05,100,84,1.04,RU,1675547831
2,mar del plata,-38.0023,-57.5575,22.13,69,0,5.66,AR,1675547831
3,busselton,-33.65,115.3333,22.63,43,75,3.19,AU,1675547832
4,pasaco,13.9772,-90.2064,34.22,32,18,2.7,GT,1675547833
5,saskylakh,71.9167,114.0833,-36.88,99,87,1.37,RU,1675547678
6,cherskiy,68.75,161.3,-38.11,100,97,1.93,RU,1675547788
7,bergerac,44.8333,0.5,7.15,93,0,1.03,FR,1675547834
8,samana,19.2056,-69.3369,28.12,78,20,3.09,DO,1675547835
9,nemuro,43.3236,145.575,-5.85,74,35,3.74,JP,1675547835
10,vardo,70.3705,31.1107,-9.01,79,85,5.66,NO,1675547751
11,salinopolis,-0.6136,-47.3561,25.71,87,98,5.44,BR,1675547642
12,albany,42.6001,-73.9662,-11.17,45,66,1.97,US,1675547543
13,langenburg,49.2544,9.8458,1.54,90,20,2.57,DE,1675547837
14,brae,60.3964,-1.3530000000000002,5.72,66,55,9.87,GB,1675547490
15,mataura,-46.1927,168.8643,21.93,72,100,1.67,NZ,1675547638
16,rikitea,-23.1203,-134.9692,26.08,74,2,6.17,PF,1675547636
17,cody,44.5263,-109.0565,7.36,33,0,10.29,US,1675547838
18,punta arenas,-53.15,-70.9167,10.06,93,100,4.12,CL,1675547505
19,dikson,73.5069,80.5464,-19.98,98,100,1.49,RU,1675547734
20,katsuura,35.1333,140.3,6.33,68,8,6.03,JP,1675547740
21,barra do garcas,-15.89,-52.2567,25.32,83,75,0.0,BR,1675547840
22,nyurba,63.2842,118.3319,-47.39,100,100,0.82,RU,1675547841
23,lebu,-37.6167,-73.65,17.05,86,57,2.24,CL,1675547693
24,saint-philippe,-21.3585,55.7679,25.77,86,98,4.39,RE,1675547647
25,qaanaaq,77.484,-69.3632,-19.66,62,85,2.42,GL,1675547657
26,te anau,-45.4167,167.7167,18.85,98,100,1.19,NZ,1675547743
27,gonbad-e qabus,37.25,55.1672,5.53,35,100,2.9,IR,1675547843
28,cidreira,-30.1811,-50.2056,24.29,70,64,4.62,BR,1675547697
29,guerrero negro,27.9769,-114.0611,20.88,35,0,4.75,MX,1675547713
30,kodiak,57.79,-152.4072,-1.27,80,0,0.0,US,1675547488
31,kambove,-10.8764,26.5969,15.52,98,100,1.92,CD,1675547847
32,chuy,-33.6971,-53.4616,20.26,80,3,6.96,UY,1675547744
33,san ignacio,17.1561,-89.0714,26.08,78,75,0.0,BZ,1675547814
34,ushuaia,-54.8,-68.3,11.81,58,75,5.14,AR,1675547643
35,lenine,45.2986,35.7771,3.18,81,100,3.91,UA,1675547848
36,thompson,55.7435,-97.8558,-18.91,65,20,1.54,CA,1675547397
37,mount gambier,-37.8333,140.7667,14.52,78,100,1.48,AU,1675547417
38,klaksvik,62.2266,-6.5889999999999995,4.51,73,43,15.06,FO,1675547849
39,hualmay,-11.0964,-77.6139,23.77,76,95,3.38,PE,1675547589
40,hithadhoo,-0.6,73.0833,27.51,71,95,6.66,MV,1675547487
41,ialibu,-6.2821,143.9935,14.86,96,100,0.49,PG,1675547850
42,puerto ayora,-0.7393,-90.3518,29.98,88,51,3.58,EC,1675547405
43,margate,51.3813,1.3862,7.95,74,100,0.45,GB,1675547657
44,olinda,-8.0089,-34.8553,26.85,83,75,2.06,BR,1675547609
45,yellowknife,62.456,-114.3525,-26.71,69,75,0.0,CA,1675547644
46,tuktoyaktuk,69.4541,-133.0374,-41.0,66,0,0.0,CA,1675547640
47,hobart,-42.8794,147.3294,17.25,63,20,3.6,AU,1675547629
48,pervomayskiy,53.2485,40.2871,-6.86,96,96,2.22,RU,1675547852
49,tual,-5.6667,132.75,27.23,83,100,6.35,ID,1675547852
50,okhotsk,59.3833,143.3,-26.86,82,40,4.97,RU,1675547809
51,artyom,40.4723,50.333,4.08,78,100,5.01,AZ,1675547853
52,beboto,8.2668,16.939,25.68,16,22,1.26,TD,1675547853
53,beisfjord,68.3751,17.5988,1.03,87,100,4.11,NO,1675547854
54,hilo,19.7297,-155.09,24.58,93,75,2.57,US,1675547397
55,cayenne,4.9333,-52.3333,23.02,94,100,6.17,GF,1675547748
56,pakokku,21.3333,95.1,19.62,34,93,2.54,MM,1675547855
57,shakiso,5.75,38.9167,13.81,35,32,1.88,ET,1675547855
58,iqaluit,63.7506,-68.5145,-36.84,65,40,6.17,CA,1675547757
59,hasaki,35.7333,140.8333,2.9,57,4,7.69,JP,1675547856
60,todos santos,23.45,-110.2167,27.95,73,20,2.45,MX,1675547857
61,ponta do sol,32.6667,-17.1,16.35,50,18,4.32,PT,1675547554
62,atuona,-9.8,-139.0333,26.03,72,38,8.46,PF,1675547632
63,olafsvik,64.8945,-23.7142,2.89,80,100,11.19,IS,1675547858
64,bluff,-46.6,168.3333,17.55,94,100,5.61,NZ,1675547537
65,kahului,20.8947,-156.47,26.02,76,20,7.72,US,1675547506
66,bismarck,46.8083,-100.7837,5.91,65,0,8.23,US,1675547621
67,pevek,69.7008,170.3133,-37.42,100,93,0.74,RU,1675547690
68,marawi,7.9986,124.2928,18.78,90,100,0.65,PH,1675547447
69,anadyr,64.75,177.4833,-29.72,69,0,7.0,RU,1675547859
70,avarua,-21.2078,-159.775,29.03,79,75,6.17,CK,1675547541
71,aguimes,27.9054,-15.4461,13.7,77,40,3.6,ES,1675547420
72,trinidad,-14.8333,-64.9,28.99,70,75,1.54,BO,1675547649
73,faya,18.3851,42.4509,13.29,61,78,0.65,SA,1675547748
74,pontes e lacerda,-15.2261,-59.3353,25.42,89,93,1.0,BR,1675547861
75,kemijarvi,66.7131,27.4306,-16.22,97,100,1.45,FI,1675547443
76,severobaykalsk,55.65,109.3167,-19.9,90,78,2.36,RU,1675547861
77,vaini,-21.2,-175.2,29.09,79,40,4.12,TO,1675547862
78,nattam,10.2333,78.2333,22.25,87,53,2.02,IN,1675547862
79,portland,45.5234,-122.6762,12.25,77,100,4.02,US,1675547626
80,rio gallegos,-51.6226,-69.2181,19.03,59,75,5.66,AR,1675547646
81,keetmanshoop,-26.5833,18.1333,26.99,26,66,6.38,,1675547863
82,le port,-20.9373,55.2919,26.0,82,99,1.78,RE,1675547863
83,port alfred,-33.5906,26.891,23.43,89,100,0.89,ZA,1675547498
84,cabo san lucas,22.8909,-109.9124,26.45,47,23,0.89,MX,1675547864
85,esperance,-33.8667,121.9,17.63,69,0,6.27,AU,1675547496
86,port elizabeth,-33.918,25.5701,24.1,62,100,0.65,ZA,1675547490
87,ramsar,36.9226,50.6426,8.69,61,0,1.03,IR,1675547865
88,shangrao,28.4532,117.9686,6.55,96,100,1.59,CN,1675547865
89,seoul,37.5683,126.9778,-3.31,93,20,1.54,KR,1675547604
90,iwanai,42.9744,140.5089,-3.15,72,100,5.12,JP,1675547866
91,florianopolis,-27.6146,-48.5012,23.12,80,75,4.12,BR,1675547866
92,belaya gora,68.5333,146.4167,-37.72,100,98,1.79,RU,1675546975
93,george town,5.4112,100.3354,25.96,88,20,3.6,MY,1675547821
94,taltal,-25.4,-70.4833,22.39,74,42,1.67,CL,1675547420
95,jamestown,42.097,-79.2353,-3.03,32,0,6.17,US,1675547533
96,kony,47.6305,17.3572,-0.52,66,16,7.4,HU,1675547867
97,bredasdorp,-34.5322,20.0403,20.93,81,0,3.64,ZA,1675547629
98,katangli,51.7102,143.2326,-25.89,98,22,4.0,RU,1675547868
99,puerto leguizamo,-0.1934,-74.7819,25.43,81,86,1.4,CO,1675547869
100,la rioja,42.25,-2.5,0.88,85,0,2.34,ES,1675547869
101,dickinson,29.4608,-95.0513,18.96,69,40,5.14,US,1675547686
102,kaitangata,-46.2817,169.8464,21.32,70,100,1.93,NZ,1675547671
103,shancheng,34.7953,116.0817,0.66,69,0,3.12,CN,1675547870
104,najran,17.4924,44.1277,17.36,50,48,1.18,SA,1675547204
105,fortuna,40.5982,-124.1573,17.42,61,75,7.72,US,1675547671
106,provideniya,64.3833,-173.3,-19.58,88,100,4.87,RU,1675547710
107,new norfolk,-42.7826,147.0587,17.06,63,13,0.89,AU,1675547637
108,mayo,38.8876,-76.5119,0.09,45,0,4.63,US,1675547871
109,geraldton,-28.7667,114.6,21.23,94,75,3.09,AU,1675547725
110,ilulissat,69.2167,-51.1,-26.13,93,85,3.55,GL,1675547872
111,thessalon,46.2501,-83.5666,-1.84,93,100,6.05,CA,1675547872
112,christchurch,-43.5333,172.6333,28.11,49,98,9.26,NZ,1675547873
113,tondela,40.5167,-8.0833,6.43,60,0,3.2,PT,1675547873
114,zhangye,38.9342,100.4517,-4.08,48,6,0.9,CN,1675547874
115,komsomolskiy,40.4272,71.7189,4.4,87,100,3.09,UZ,1675547874
116,souillac,-20.5167,57.5167,26.21,89,40,2.06,MU,1675547679
117,lasa,46.6166,10.7002,2.49,80,36,4.04,IT,1675547732
118,oussouye,12.485,-16.5469,25.1,47,37,4.0,SN,1675547875
119,hofn,64.2539,-15.2082,0.47,60,52,3.32,IS,1675547876
120,ribeira grande,38.5167,-28.7,17.1,94,20,5.36,PT,1675547557
121,tiksi,71.6872,128.8694,-27.72,100,100,1.65,RU,1675547876
122,georgetown,5.4112,100.3354,25.96,88,20,3.6,MY,1675547381
123,codrington,-38.2667,141.9667,15.15,78,100,2.61,AU,1675547568
124,saint-pierre,-21.3393,55.4781,25.82,83,75,2.06,RE,1675547877
125,padang,-0.9492,100.3543,24.03,86,100,1.35,ID,1675547728
126,terney,45.0503,136.6092,-12.76,79,90,2.84,RU,1675547878
127,constitucion,-35.3333,-72.4167,19.0,78,29,2.19,CL,1675547735
128,belmonte,-15.8631,-38.8828,26.68,80,2,4.78,BR,1675547878
129,ystad,55.4297,13.8204,-5.59,55,9,1.54,SE,1675547879
130,bontang,0.1333,117.5,24.76,88,100,2.08,ID,1675547879
131,monterey,36.2505,-121.2516,16.06,75,100,3.87,US,1675547765
132,nehe,48.4833,124.8333,-23.88,99,67,2.72,CN,1675547880
133,aklavik,68.2191,-135.0107,-36.0,68,20,1.03,CA,1675547880
134,airai,-8.9266,125.4092,15.75,90,99,1.01,TL,1675547626
135,myronivka,49.6601,30.9823,-4.93,80,100,4.83,UA,1675547881
136,muros,42.7762,-9.0603,9.35,82,1,3.96,ES,1675547881
137,jumla,29.2747,82.1838,2.59,42,0,2.0,NP,1675547882
138,gedo,9.0167,37.45,11.76,43,15,1.67,ET,1675547882
139,tasiilaq,65.6145,-37.6368,-3.91,82,100,8.6,GL,1675547741
140,pecsvarad,46.1603,18.4232,-1.12,61,0,7.89,HU,1675547883
141,rivera,-30.9053,-55.5508,26.13,27,0,4.25,UY,1675547883
142,mafeteng,-29.823,27.2374,18.06,47,32,1.97,LS,1675547884
143,badulla,6.9895,81.0557,20.31,98,90,2.29,LK,1675547884
144,east london,-33.0153,27.9116,23.7,83,100,5.29,ZA,1675547486
145,kavali,14.9167,79.9833,20.83,82,4,1.72,IN,1675547885
146,victoria,22.2855,114.1577,18.3,86,100,4.02,HK,1675547726
147,srednekolymsk,67.45,153.6833,-35.85,100,100,1.38,RU,1675547885
148,timra,62.486999999999995,17.3257,-17.18,85,88,1.54,SE,1675547886
149,millau,44.0833,2.9167,8.07,97,19,2.41,FR,1675547886
150,kattivakkam,13.2167,80.3167,25.05,72,4,1.01,IN,1675547887
151,vestmanna,62.1564,-7.1664,3.51,75,75,11.32,FO,1675547887
152,honningsvag,70.9821,25.9704,-2.14,74,67,8.75,NO,1675547888
153,sambava,-14.2667,50.1667,24.27,91,69,3.67,MG,1675547888
154,marrakesh,31.6315,-8.0083,12.04,35,40,3.09,MA,1675547708
155,nouakchott,18.0858,-15.9785,18.96,27,100,4.43,MR,1675547889
156,cape town,-33.9258,18.4232,21.6,88,40,2.57,ZA,1675547636
157,bairiki,1.3292,172.9752,29.0,79,40,4.63,KI,1675547432
158,chokurdakh,70.6333,147.9167,-30.92,97,75,3.61,RU,1675547523
159,barrow,71.2906,-156.7887,-30.99,76,20,3.6,US,1675547877
160,severo-kurilsk,50.6789,156.125,-3.09,73,100,2.71,RU,1675547526
161,ormara,25.2088,64.6357,21.44,80,0,4.99,PK,1675547890
162,san antonio,29.4241,-98.4936,17.86,59,75,5.14,US,1675547386
163,alyangula,-13.8483,136.4192,27.23,59,95,1.13,AU,1675547891
164,banda aceh,5.5577,95.3222,24.79,86,88,2.55,ID,1675547891
165,acarau,-2.8856,-40.12,26.43,81,48,7.19,BR,1675547892
166,dalbandin,28.8947,64.4101,15.76,49,0,1.55,PK,1675547892
167,bella union,-30.2752,-57.6007,29.89,20,0,4.38,UY,1675547892
168,solnechnyy,50.7214,136.6319,-25.35,98,99,0.93,RU,1675547893
169,rostovka,55.3842,71.8891,-20.18,100,100,1.33,RU,1675547893
170,upernavik,72.7868,-56.1549,-21.41,96,100,2.19,GL,1675547485
171,north bend,43.4065,-124.2243,13.95,72,75,3.09,US,1675547894
172,kodinsk,58.6881,99.1844,-14.18,98,99,1.14,RU,1675547894
173,auki,-8.7676,160.7034,27.54,84,100,2.64,SB,1675547450
174,vao,-22.6667,167.4833,26.32,87,90,8.85,NC,1675547895
175,mangan,27.5167,88.5333,14.58,70,98,1.1,IN,1675547895
176,shingu,33.7333,135.9833,1.78,78,12,3.05,JP,1675547483
177,mumbwa,-14.9783,27.0619,18.23,95,100,1.64,ZM,1675547896
178,ancud,-41.8697,-73.8203,20.12,68,53,1.92,CL,1675547686
179,wanning,18.8003,110.3967,22.22,92,100,3.17,CN,1675547801
180,bauta,22.9828,-82.5464,26.66,65,62,7.03,CU,1675547897
181,mogwase,-25.185,27.2665,19.62,82,10,2.13,ZA,1675547897
182,kieta,-6.2167,155.6333,26.45,83,99,1.31,PG,1675547898
183,aracatuba,-21.2089,-50.4328,30.1,54,40,3.09,BR,1675547898
184,bathsheba,13.2167,-59.5167,27.34,74,75,9.26,BB,1675547859
185,iwaki,37.05,140.8833,1.34,71,5,3.93,JP,1675547899
186,novyy urengoy,66.0833,76.6333,-10.59,96,100,2.88,RU,1675547802
187,severnyy,50.677,36.5532,-3.98,92,100,2.0,RU,1675547899
188,katherine,-14.4667,132.2667,23.18,94,37,0.0,AU,1675547900
189,sitka,57.0531,-135.33,1.94,93,100,1.54,US,1675547654
190,quatre cocos,-20.2078,57.7625,26.06,85,71,4.05,MU,1675547777
191,hermanus,-34.4187,19.2345,21.0,92,23,3.01,ZA,1675547900
192,noumea,-22.2763,166.4572,30.99,99,76,5.68,NC,1675547826
193,naziya,59.8,31.3833,-4.2,1,83,3.2,RU,1675547901
194,khatanga,71.9667,102.5,-38.92,100,52,2.17,RU,1675547538
195,naze,28.3667,129.4833,13.51,67,99,4.77,JP,1675547755
196,mahebourg,-20.4081,57.7,26.16,89,40,2.06,MU,1675547529
197,humaita,-7.5061,-63.0208,26.05,86,76,0.61,BR,1675547902
198,luganville,-15.5333,167.1667,27.35,87,100,5.91,VU,1675547902
199,repatriacion,-25.5333,-55.95,26.77,44,80,1.24,PY,1675547903
200,ahipara,-35.1667,173.1667,22.01,75,100,4.36,NZ,1675547903
201,inhambane,-23.865,35.3833,24.36,86,9,3.79,MZ,1675547904
202,gualeguay,-33.1416,-59.3097,29.45,22,0,4.31,AR,1675547904
203,ondjiva,-17.0667,15.7333,20.93,53,100,2.33,AO,1675547905
204,quelimane,-17.8786,36.8883,25.97,94,20,1.03,MZ,1675547905
205,port hardy,50.6996,-127.4199,8.1,93,75,10.29,CA,1675547610
206,ostrovnoy,68.0531,39.5131,-10.53,85,100,5.51,RU,1675547738
207,butaritari,3.0707,172.7902,27.38,80,56,8.62,KI,1675547739
208,san patricio,28.017,-97.5169,21.4,56,40,4.59,US,1675547508
209,carnarvon,-24.8667,113.6333,25.62,71,1,2.06,AU,1675547682
210,troitsko-pechorsk,62.7084,56.1964,-20.32,100,97,1.11,RU,1675547907
211,ambon,-3.6954,128.1814,25.08,94,40,2.06,ID,1675547907
212,yepocapa,14.5042,-90.9569,23.56,44,18,0.83,GT,1675547908
213,tiznit,29.5833,-9.5,10.51,45,6,1.07,MA,1675547908
214,batagay-alyta,67.8006,130.4114,-35.89,94,98,1.03,RU,1675547908
215,ayan,56.45,138.1667,-23.04,88,87,2.34,RU,1675547909
216,nanortalik,60.1432,-45.2371,-3.53,74,99,7.48,GL,1675547749
217,manzanillo,20.3433,-77.1167,28.36,54,65,1.82,CU,1675547910
218,bambous virieux,-20.3428,57.7575,26.14,89,40,2.06,MU,1675547524
219,yantal,56.8471,105.2542,-17.0,99,97,1.53,RU,1675547910
220,lagoa,39.05,-27.9833,15.07,88,3,8.31,PT,1675547641
221,opuwo,-18.0607,13.84,22.16,33,85,1.59,,1675547911
222,nuevo progreso,23.1667,-97.95,22.16,43,2,0.89,MX,1675547912
223,patnos,39.2336,42.8634,-7.52,96,100,0.93,TR,1675547912
224,darhan,49.4867,105.9228,-24.67,98,24,1.79,MN,1675547655
225,galle,6.0367,80.217,24.69,87,38,0.86,LK,1675547913
226,los llanos de aridane,28.6585,-17.9182,13.86,69,20,3.6,ES,1675547689
227,bennettsville,34.6174,-79.6848,8.1,37,0,2.06,US,1675547913
228,namibe,-15.1961,12.1522,21.66,76,64,3.38,AO,1675547664
229,pangnirtung,66.1451,-65.7125,-36.61,98,75,1.08,CA,1675547501
230,luderitz,-26.6481,15.1594,17.62,85,27,6.76,,1675547914
231,mukhen,48.1,136.1,-16.61,93,95,2.28,RU,1675547915
232,iquitos,-3.7481,-73.2472,27.02,78,75,2.57,PE,1675547915
233,tezu,27.9167,96.1667,15.58,29,25,1.9,IN,1675547916
234,mehamn,71.0357,27.8492,-2.03,86,77,2.06,NO,1675547697
235,svetlogorsk,52.6333,29.7333,-6.48,93,90,4.51,BY,1675547685
236,port lincoln,-34.7333,135.8667,17.37,70,58,2.12,AU,1675547492
237,neftcala,39.3742,49.2472,9.05,86,100,4.82,AZ,1675547917
238,coolum beach,-26.5333,153.1,25.74,91,56,4.82,AU,1675547917
239,maceio,-9.6658,-35.7353,27.69,83,20,4.63,BR,1675547674
240,qui nhon,13.7667,109.2333,23.66,82,71,2.58,VN,1675547918
241,waingapu,-9.6567,120.2641,24.4,92,100,4.73,ID,1675547918
242,roald,62.5833,6.1333,5.74,81,75,8.75,NO,1675547918
243,isangel,-19.55,169.2667,29.06,89,75,1.54,VU,1675547433
244,aksu,41.1231,80.2644,-7.13,84,30,2.54,CN,1675547919
245,chahuites,16.2833,-94.1833,26.56,46,15,7.89,MX,1675547920
246,kenai,60.5544,-151.2583,-3.81,88,100,2.06,US,1675547920
247,kaabong,3.4836,34.1492,20.35,36,48,2.11,UG,1675547920
248,gasa,31.5,34.4667,12.16,63,84,5.52,PS,1675547921
249,pecos,31.4229,-103.4932,22.36,22,0,1.54,US,1675547921
250,suchiapa,16.6167,-93.0833,22.18,60,75,9.77,MX,1675547922
251,malangwa,26.8568,85.5581,12.07,68,0,1.54,NP,1675547923
252,sokoni,-6.4333,39.55,27.92,77,100,4.42,TZ,1675547923
253,port macquarie,-31.4333,152.9167,22.72,62,0,1.03,AU,1675547923
254,kilindoni,-7.9139,39.6668,27.62,78,100,5.44,TZ,1675547924
255,mayor pablo lagerenza,-19.9309,-60.7718,30.98,37,95,2.33,PY,1675547924
256,maningrida,-12.0667,134.2667,24.55,90,91,1.81,AU,1675547925
257,sao filipe,14.8961,-24.4956,22.12,63,28,6.42,CV,1675547608
258,conceicao do araguaia,-8.2578,-49.2647,24.8,86,97,0.2,BR,1675547926
259,narsaq,60.9167,-46.05,-5.05,87,100,6.06,GL,1675547926
260,castro,-24.7911,-50.0119,18.6,92,80,2.43,BR,1675547573
261,kurumkan,54.3,110.3,-21.64,93,47,1.86,RU,1675547927
262,grand gaube,-20.0064,57.6608,26.22,82,97,1.34,MU,1675547462
263,bandipur,27.9333,84.4167,7.4,70,2,1.18,NP,1675547928
264,garowe,8.4054,48.4845,18.67,71,69,5.71,SO,1675547928
265,kruisfontein,-34.0033,24.7314,21.45,65,80,1.77,ZA,1675547929
266,srikakulam,18.3,83.9,18.39,83,4,2.75,IN,1675547929
267,mount isa,-20.7333,139.5,22.87,35,98,5.14,AU,1675547930
268,eldorado,-23.7869,-54.2836,24.5,70,57,2.49,BR,1675547930
269,songea,-10.6833,35.65,17.63,95,100,0.88,TZ,1675547930
270,senekal,-28.3197,27.6208,20.03,57,91,6.01,ZA,1675547931
271,miles city,46.4083,-105.8406,9.54,46,0,7.72,US,1675547931
272,poum,-20.2333,164.0167,27.71,78,28,2.63,NC,1675547505
273,bytow,54.1706,17.4919,-4.88,89,97,2.53,PL,1675547932
274,santiago de cao,-7.9589,-79.2392,24.07,78,40,4.12,PE,1675547932
275,dakar,14.6937,-17.4441,29.07,42,95,4.12,SN,1675547867
276,ewa beach,21.3156,-158.0072,22.46,88,100,4.12,US,1675547933
277,gonzales,30.2385,-90.9201,17.25,44,0,3.6,US,1675547933
278,port augusta,-32.5,137.7667,19.31,49,1,2.42,AU,1675547934
279,cap-aux-meules,47.3821,-61.8597,-12.97,92,100,18.52,CA,1675547934
280,lorengau,-2.0226,147.2712,28.25,71,100,2.33,PG,1675547935
281,xiaoweizhai,26.1903,107.5125,5.21,95,100,0.98,CN,1675547935
282,labuan,5.2767,115.2417,25.2,94,20,0.0,MY,1675547936
283,truth or consequences,33.1284,-107.2528,17.86,17,0,4.12,US,1675547936
284,cascas,-7.4833,-78.8167,21.92,70,95,3.27,PE,1675547937
285,fare,-16.7,-151.0167,27.33,73,18,7.68,PF,1675547937
286,tinskoy,56.1525,96.9161,-18.07,99,100,1.02,RU,1675547937
287,gemena,3.25,19.7667,24.56,25,73,0.89,CD,1675547938
288,buraydah,26.326,43.975,13.25,33,0,5.82,SA,1675547938
289,wewak,-3.5534,143.6268,25.9,86,100,1.93,PG,1675547939
290,yatou,37.15,122.3833,0.06,56,0,2.11,CN,1675547939
291,carutapera,-1.195,-46.02,24.78,93,100,3.67,BR,1675547940
292,rockport,28.0206,-97.0544,21.02,100,0,5.66,US,1675547940
293,lompoc,34.6391,-120.4579,22.1,77,0,2.57,US,1675547432
294,shimoda,34.6667,138.95,3.39,68,35,4.78,JP,1675547941
295,rio grande,-32.035,-52.0986,28.06,67,0,6.93,BR,1675547941
296,vila velha,-20.3297,-40.2925,27.97,84,0,7.2,BR,1675547888
297,yokadouma,3.5167,15.05,24.79,33,50,0.65,CM,1675547942
298,sur,22.5667,59.5289,21.13,67,1,1.96,OM,1675547870
299,pilas,37.3034,-6.301,11.32,65,0,2.15,ES,1675547944
300,meulaboh,4.1363,96.1285,23.86,88,98,1.65,ID,1675547945
301,honiara,-9.4333,159.95,28.48,78,96,0.69,SB,1675547946
302,bandarbeyla,9.4942,50.8122,23.7,67,92,6.78,SO,1675547426
303,kamenka,51.3223,42.7678,-6.22,96,100,3.32,RU,1675547948
304,bud,39.446999999999996,-86.1758,8.01,48,87,7.02,US,1675547495
305,misratah,32.3754,15.0925,14.34,69,31,1.87,LY,1675547931
306,bath,51.3779,-2.3591,9.1,90,100,2.55,GB,1675547863
307,petropavlovsk-kamchatskiy,53.0452,158.6483,-16.67,66,40,4.0,RU,1675547950
308,jacmel,18.2342,-72.5347,29.91,67,6,2.2,HT,1675547951
309,aloleng,16.1307,119.7824,23.86,69,80,2.99,PH,1675547951
310,xinqing,48.2333,129.5,-18.85,100,100,0.3,CN,1675547952
311,nome,64.5011,-165.4064,-10.96,85,100,3.6,US,1675547670
312,haines junction,60.7522,-137.5108,-9.03,67,100,0.51,CA,1675547892
313,selfoss,63.9331,-20.9971,0.58,94,100,7.26,IS,1675547954
314,doha,25.2867,51.5333,16.99,59,0,2.57,QA,1675547904
315,zhigansk,66.7697,123.3711,-41.79,96,47,5.02,RU,1675547700
316,arica,-18.475,-70.3042,28.75,65,0,5.66,CL,1675547786
317,makakilo city,21.3469,-158.0858,21.67,87,100,4.12,US,1675547956
318,bengkulu,-3.8004,102.2655,23.31,89,100,2.07,ID,1675547696
319,bethel,41.3712,-73.414,-7.02,37,20,3.09,US,1675547795
320,bichena,10.45,38.2,13.35,36,27,1.03,ET,1675547959
321,upata,8.0086,-62.3989,24.55,60,88,3.86,VE,1675547959
322,winnemucca,40.973,-117.7357,5.57,54,100,1.98,US,1675547960
323,birin,26.8865,88.0718,8.16,68,3,1.71,NP,1675547961
324,kalaleh,37.3807,55.4916,4.78,56,0,0.0,IR,1675547962
325,yar-sale,66.8333,70.8333,-12.1,97,99,2.52,RU,1675547963
326,arraial do cabo,-22.9661,-42.0278,28.98,74,0,6.17,BR,1675547667
327,maniitsoq,65.4167,-52.9,-16.83,84,32,7.64,GL,1675547964
328,kerrville,30.0474,-99.1403,13.07,75,100,4.12,US,1675547791
329,port hedland,-20.3167,118.5667,25.03,88,17,3.6,AU,1675547736
330,ketchikan,55.3422,-131.6461,7.99,87,100,5.66,US,1675547967
331,cavalcante,-13.7975,-47.4583,21.79,84,26,0.36,BR,1675547968
332,yevpatoriya,45.1972,33.3558,3.32,79,100,6.4,UA,1675547968
333,dehloran,32.6941,47.2679,11.43,41,75,2.68,IR,1675547969
334,sawtell,-30.3833,153.1,24.01,73,1,2.06,AU,1675547969
335,aras,42.5617,-2.356,4.87,70,0,6.17,ES,1675547970
336,kiunga,-6.1219,141.2906,22.84,100,100,0.9,PG,1675547970
337,faanui,-16.4833,-151.75,27.49,72,64,8.36,PF,1675547971
338,namatanai,-3.6667,152.4333,26.31,81,100,1.45,PG,1675547688
339,plainview,40.7765,-73.4673,-4.56,36,75,2.57,US,1675547899
340,awassa,7.05,38.4667,17.17,49,32,3.88,ET,1675547971
341,puerto madryn,-42.7692,-65.0385,31.11,24,1,9.85,AR,1675547972
342,sturgeon bay,44.8342,-87.37700000000001,-3.01,58,0,6.69,US,1675547972
343,aksarka,66.5606,67.7975,-18.69,100,84,1.61,RU,1675547973
344,husavik,66.0449,-17.3389,-2.89,73,22,6.39,IS,1675547647
345,sartana,47.1744,37.6927,0.09,79,96,2.06,UA,1675547974
346,coquimbo,-29.9533,-71.3436,22.85,64,0,4.63,CL,1675547974
347,oda,35.1833,132.5,-0.57,71,70,2.76,JP,1675547974
348,nikolskoye,59.7035,30.7861,-3.06,93,99,3.11,RU,1675547681
349,marsh harbour,26.5412,-77.0636,21.94,77,98,12.75,BS,1675547975
350,medina,24.4686,39.6142,18.24,36,0,0.0,SA,1675547812
351,zhongxing,33.7039,118.6792,0.38,71,6,3.06,CN,1675547976
352,clyde river,70.4692,-68.5914,-27.87,57,75,6.69,CA,1675547441
353,nantucket,41.2835,-70.0995,-8.92,38,0,5.66,US,1675547977
354,ambilobe,-13.2,49.05,23.24,96,99,0.59,MG,1675547977
355,boa vista,2.8197,-60.6733,28.99,61,40,1.54,BR,1675547927
356,dunedin,-45.8742,170.5036,20.45,84,100,2.24,NZ,1675547727
357,lata,40.1629,-8.3327,5.6,70,0,1.8,PT,1675547978
358,khandyga,62.6667,135.6,-43.52,99,92,0.53,RU,1675547821
359,krasnoselkup,65.7,82.4667,-15.0,96,100,3.89,RU,1675547887
360,bulgan,48.8125,103.5347,-18.97,89,81,1.27,MN,1675547979
361,gizo,-8.103,156.8419,28.04,76,91,3.25,SB,1675547500
362,guaraniacu,-25.1008,-52.8781,20.07,74,93,1.24,BR,1675547979
363,rio novo,-21.4575,-43.1253,24.46,84,76,1.64,BR,1675547980
364,tooele,40.5308,-112.2983,7.14,66,70,1.13,US,1675547919
365,talcahuano,-36.7167,-73.1167,18.82,77,100,4.12,CL,1675547715
366,soloneshnoye,51.6544,84.3197,-5.74,97,100,0.66,RU,1675547981
367,derzhavinsk,51.1,66.3167,-16.5,97,51,3.95,KZ,1675547982
368,port blair,11.6667,92.75,26.02,89,40,1.03,IN,1675547982
369,oktyabrskiy,54.4815,53.471000000000004,-12.65,95,100,0.83,RU,1675547983
370,skibbereen,51.55,-9.2667,5.06,88,48,4.5,IE,1675547983
371,sorland,67.667,12.6934,2.92,91,100,18.0,NO,1675547908
372,longyearbyen,78.2186,15.6401,-8.09,62,0,10.29,SJ,1675547984
373,san policarpo,12.1791,125.5072,25.81,84,100,7.49,PH,1675547984
374,red bluff,40.1785,-122.2358,12.14,71,100,3.09,US,1675547985
375,laguna,38.421,-121.4238,18.99,55,100,5.14,US,1675547985
376,tura,25.5198,90.2201,13.41,54,0,1.06,IN,1675547986
377,torbay,47.6666,-52.7314,-13.18,80,75,13.38,CA,1675547599
378,jizan,17.3333,42.6667,24.52,71,67,2.3,SA,1675547987
379,sumenep,-7.0167,113.8667,25.06,90,100,4.23,ID,1675547987
380,sangar,63.9242,127.4739,-32.03,100,100,0.28,RU,1675547987
381,avera,33.194,-82.5271,10.77,42,50,2.93,US,1675547639
382,craig,40.5153,-107.5464,-6.21,84,36,0.6,US,1675547988
383,annau,37.8876,58.516000000000005,2.72,93,100,2.06,TM,1675547989
384,dire,12.2833,-10.9667,27.69,14,39,1.14,ML,1675547989
385,san quintin,30.4833,-115.95,17.9,54,0,4.27,MX,1675547990
386,hamilton,39.1834,-84.5333,8.05,42,66,5.4,US,1675547990
387,yeppoon,-23.1333,150.7333,28.88,83,59,4.14,AU,1675547775
388,sabang,5.8933,95.3214,27.2,74,96,5.27,ID,1675547469
389,gat,31.61,34.7642,12.44,100,72,3.59,IL,1675547425
390,dubbo,-32.25,148.6167,16.07,55,0,4.12,AU,1675547991
391,nouadhibou,20.930999999999997,-17.0347,20.99,30,83,5.14,MR,1675547991
392,saldanha,-33.0117,17.9442,19.03,96,91,6.84,ZA,1675547878
393,bubaque,11.2833,-15.8333,25.03,66,8,6.51,GW,1675547992
394,atar,20.5169,-13.0499,17.01,18,60,5.39,MR,1675547993
395,brewster,41.3973,-73.6171,-6.59,38,20,3.09,US,1675547928
396,saint george,37.1041,-113.5841,16.91,30,0,1.54,US,1675547462
397,dzilam gonzalez,21.2833,-88.9333,23.97,74,73,4.98,MX,1675547993
398,coihaique,-45.5752,-72.0662,28.97,26,20,4.63,CL,1675547994
399,korcula,42.9622,17.1369,6.01,45,0,10.18,HR,1675547994
400,sura,53.8879,45.7419,-13.0,100,99,1.53,RU,1675547995
401,rocha,-34.4833,-54.3333,18.92,93,76,7.42,UY,1675547995
402,glace bay,46.1969,-59.957,-14.56,75,100,14.12,CA,1675547996
403,kulykivka,51.3735,31.6466,-6.2,94,100,3.91,UA,1675547996
404,shelopugino,51.6514,117.5599,-29.92,100,80,1.32,RU,1675547997
405,caravelas,-17.7125,-39.2481,26.26,82,12,4.81,BR,1675547416
406,butte,39.6499,-121.5677,14.45,54,100,3.45,US,1675547998
407,gimry,42.7597,46.8396,2.13,56,100,0.31,RU,1675547998
408,myitkyina,25.3833,97.4,14.59,57,0,1.29,MM,1675547999
409,sao joao da barra,-21.6403,-41.0511,30.05,90,7,6.42,BR,1675547837
410,newala,-10.9431,39.2787,18.82,93,94,1.08,TZ,1675547999
411,anito,12.4497,125.2886,24.66,90,95,5.52,PH,1675548000
412,acapulco,16.8634,-99.8901,29.04,56,3,3.48,MX,1675547896
413,ouargaye,11.5033,0.0572,29.03,15,18,3.29,BF,1675548001
414,aswan,24.0934,32.907,14.61,30,0,3.6,EG,1675548002
415,yamada,39.4667,141.95,-3.2,78,14,2.24,JP,1675548006
416,harbour breton,47.4833,-55.7983,-9.87,81,100,19.84,CA,1675548009
417,sola,-13.8833,167.55,26.37,89,100,0.0,VU,1675548013
418,wellington,-41.2866,174.7756,23.66,82,89,8.75,NZ,1675547784
419,sioux lookout,50.1001,-91.917,-13.96,72,100,2.06,CA,1675547804
420,santiago de chuco,-8.15,-78.1833,12.74,86,93,1.6,PE,1675548023
421,sukumo,32.9333,132.7333,1.4,79,9,2.29,JP,1675548031
422,berwick,41.0545,-76.2333,-2.81,44,56,0.89,US,1675547830
423,roma,43.2128,-75.4557,-10.1,54,100,4.12,US,1675548032
424,kabare,-2.4683,28.8242,15.56,85,85,1.05,CD,1675548033
425,banki,20.3833,85.5333,17.06,72,14,1.19,IN,1675548034
426,tawau,4.2498,117.8871,24.07,100,85,1.34,MY,1675548035
427,blackwater,-23.5833,148.8833,26.18,60,99,3.32,AU,1675548035
428,hambantota,6.1241,81.1185,24.19,100,40,2.06,LK,1675548036
429,mmathubudukwane,-24.6,26.4333,20.66,86,50,1.22,BW,1675548037
430,mizdah,31.4451,12.9801,8.56,64,20,2.05,LY,1675548038
431,phan thiet,10.9333,108.1,21.23,87,31,3.08,VN,1675547761
432,coahuayana,18.7333,-103.6833,30.3,37,0,3.46,MX,1675548038
433,high rock,26.6208,-78.2833,22.01,74,96,11.45,BS,1675548039
434,sidi ali,36.0998,0.4206,8.33,78,0,0.99,DZ,1675548039
435,karaton,-6.3424,106.1045,23.44,92,100,1.91,ID,1675548040
436,jingdezhen,29.2947,117.2079,7.59,96,85,0.44,CN,1675548040
437,lugovoy,42.9472,72.7644,-0.74,89,100,1.36,KZ,1675548041
438,visnes,59.3556,5.2242,5.12,93,100,8.75,NO,1675548041
439,bondo,3.8146,23.6866,22.47,33,14,0.88,CD,1675548042
440,yarada,17.65,83.2667,17.18,94,4,1.03,IN,1675548042
441,thouars,46.976000000000006,-0.2151,8.44,67,100,3.95,FR,1675548043
442,kidal,18.4411,1.4078,21.45,10,97,5.28,ML,1675548043
443,beclean,47.1833,24.1833,-3.37,85,100,2.2,RO,1675548044
444,syracuse,37.0881,15.2792,8.51,75,0,3.49,IT,1675548045
445,ixtapa,20.7,-105.2,24.57,73,20,5.14,MX,1675547990
446,jalu,29.0331,21.5482,12.36,52,100,1.92,LY,1675548045
447,zhifang,30.35,114.3167,6.99,80,95,1.67,CN,1675548046
448,lensk,60.7253,114.9278,-23.08,100,100,0.81,RU,1675548047
449,am timan,11.0297,20.2827,26.49,16,96,2.93,TD,1675548047
450,susaki,33.3667,133.2833,4.04,70,23,2.3,JP,1675548048
451,jacqueville,5.2052,-4.4146,26.98,86,58,4.75,CI,1675548048
452,muskegon,43.3,-86.1334,1.05,73,100,8.75,US,1675547983
453,vung tau,10.345999999999998,107.0843,24.95,78,63,9.33,VN,1675548049
454,parry sound,45.3501,-80.033,-5.05,79,100,6.96,CA,1675548050
455,naryan-mar,67.6713,53.086999999999996,-16.72,98,52,3.21,RU,1675548050
456,kharp,66.8014,65.8081,-13.82,88,83,4.29,RU,1675548051
457,vestmannaeyjar,63.4427,-20.2734,4.69,76,100,9.9,IS,1675547491
458,yulara,-25.2406,130.9889,19.85,31,0,5.15,AU,1675547762
459,fairbanks,64.8378,-147.7164,-11.02,77,100,1.54,US,1675547729
460,kajaani,64.2273,27.7285,-14.97,85,0,2.06,FI,1675548052
461,sandakan,5.8402,118.1179,26.82,83,20,2.68,MY,1675548052
462,morros,-9.4467,-46.3003,26.56,63,82,2.79,BR,1675548053
463,baiyin,36.5583,104.2081,-0.34,43,99,2.0,CN,1675548053
464,huarmey,-10.0681,-78.1522,23.93,74,73,4.18,PE,1675547491
465,safford,32.834,-109.7076,22.51,15,0,1.54,US,1675548054
466,rundu,-17.9333,19.7667,21.22,79,98,0.76,,1675547669
467,kara-tyube,44.6336,45.4369,-1.02,77,87,3.66,RU,1675548055
468,bryan,30.6744,-96.37,17.82,54,0,3.09,US,1675548056
469,touros,-5.1989,-35.4608,26.5,80,89,6.2,BR,1675547751
470,qaqortoq,60.7167,-46.0333,-4.32,74,98,10.22,GL,1675547496
471,keelung,25.1283,121.7419,17.94,96,100,3.19,TW,1675548057
472,ilhabela,-23.7781,-45.3581,26.63,82,88,2.36,BR,1675548057
473,araouane,18.9048,-3.5265,16.61,16,98,5.52,ML,1675547580
474,bend,44.0582,-121.3153,8.92,57,20,0.45,US,1675547814
475,imelda,7.65,123.95,24.23,87,99,1.49,PH,1675548058
476,kavieng,-2.5744,150.7967,27.98,73,97,2.14,PG,1675548059
477,balykshi,47.0667,51.8667,-10.0,92,75,3.0,KZ,1675548059
478,hami,42.8,93.45,-1.08,37,100,2.2,CN,1675547718
479,fukue,32.6881,128.8419,8.36,51,12,3.64,JP,1675547694
480,eskil,38.4017,33.4131,-1.97,86,85,2.7,TR,1675548060
481,alanya,36.5438,31.9998,10.65,63,100,4.53,TR,1675548061
482,krasnoye,49.9145,24.6134,-6.78,95,78,3.2,UA,1675548064
483,saint anthony,45.0205,-93.21799999999999,-1.27,66,20,4.12,US,1675547684
484,alcudia,39.8532,3.1214,12.33,63,0,2.93,ES,1675548068
485,umm kaddadah,13.6017,26.6876,17.46,16,62,5.58,SD,1675548072
486,chernyshevskiy,63.0128,112.4714,-37.45,100,100,1.41,RU,1675548075
487,svetlyy,54.675,20.1347,-1.69,77,66,3.75,RU,1675548077
488,coro,11.4045,-69.6734,26.4,73,21,8.88,VE,1675548081
489,havelock,34.8791,-76.9013,4.97,52,0,4.12,US,1675547947
490,paamiut,61.994,-49.6678,-4.13,77,100,12.53,GL,1675548093
491,nambour,-26.6333,152.95,25.61,92,76,2.24,AU,1675548093
492,hutchinson,38.0608,-97.9298,16.13,32,0,5.66,US,1675548094
493,caidian,30.5833,114.0333,7.07,76,100,0.93,CN,1675548094
494,pitimbu,-7.4706,-34.8086,28.33,78,19,4.63,BR,1675548095
495,pathein,16.7833,94.7333,20.7,72,13,2.56,MM,1675547674
496,kuah,6.3265,99.8432,25.99,78,20,0.0,MY,1675548095
497,alpine,32.835,-116.7664,23.15,31,0,6.17,US,1675547814
498,nizwa,22.9333,57.5333,20.33,61,0,1.41,OM,1675548096
499,petatlan,17.5167,-101.2667,30.81,40,0,3.09,MX,1675548097
500,goderich,43.7501,-81.7165,-3.38,68,85,8.23,CA,1675548097
501,porto seguro,-16.4497,-39.0647,28.29,78,20,6.17,BR,1675548098
502,mana,5.6592,-53.7767,24.75,87,100,6.12,GF,1675548098
503,balabac,7.9868,117.0645,26.29,81,42,6.12,PH,1675548098
504,mhlume,-26.0333,31.85,25.57,96,1,1.98,SZ,1675548099
505,saint-georges,12.0564,-61.7485,27.82,74,20,7.2,GD,1675547715
506,norman wells,65.282,-126.8329,-25.98,64,75,2.06,CA,1675547925
507,kyabe,9.4515,18.9449,28.0,15,19,2.29,TD,1675548100
508,semey,50.4111,80.2275,-11.31,97,97,2.19,KZ,1675548100
509,rurrenabaque,-14.4413,-67.5278,21.7,99,100,0.83,BO,1675548101
510,nabire,-3.3667,135.4833,23.8,96,100,1.79,ID,1675548101
511,crotone,39.0851,17.1178,9.16,53,12,13.99,IT,1675548102
512,muisne,0.6,-80.0333,24.51,90,100,4.0,EC,1675548102
513,camacha,33.0833,-16.3333,14.68,63,40,7.2,PT,1675547804
514,batagay,67.6333,134.6333,-41.28,99,100,0.62,RU,1675548103
515,guiratinga,-16.3494,-53.7583,23.55,89,92,1.85,BR,1675548103
516,saintes,45.6667,-0.75,8.86,67,100,4.89,FR,1675548104
517,bonavista,48.6499,-53.1147,-11.92,72,92,17.21,CA,1675548105
518,taybad,34.74,60.7756,5.79,73,87,3.78,IR,1675548105
519,necochea,-38.5473,-58.7368,20.25,53,0,5.22,AR,1675548034
520,karratha,-20.7377,116.8463,31.11,47,61,2.67,AU,1675548106
521,seddon,-37.8068,144.8916,17.06,78,75,3.09,AU,1675548106
522,alofi,-19.0595,-169.9187,27.94,78,100,3.6,NU,1675548106
523,sonamura,23.4719,91.2664,13.97,53,100,1.57,IN,1675548107
524,porangatu,-13.4408,-49.1486,23.97,86,53,0.78,BR,1675548107
525,balsas,-7.5325,-46.0356,26.86,70,96,1.96,BR,1675548101
526,flinders,-34.5833,150.8552,22.81,59,0,2.24,AU,1675548108
527,bara,10.3744,10.7288,25.81,17,66,4.23,NG,1675548109
528,porto belo,-27.1578,-48.5531,26.97,81,80,5.21,BR,1675548109
529,praia da vitoria,38.7333,-27.0667,15.98,100,40,5.92,PT,1675548109
530,belp,46.8913,7.4983,5.99,82,100,3.13,CH,1675547914
531,ada,43.4166,-116.1262,7.48,92,93,3.27,US,1675548101
532,sinnamary,5.3833,-52.95,24.91,88,100,7.35,GF,1675547875
533,shenzhen,22.5455,114.0683,18.24,90,100,1.31,CN,1675547615
534,nishihara,26.1842,127.7558,16.6,88,75,4.63,JP,1675548111
535,kankipadu,16.45,80.7833,18.94,91,1,1.26,IN,1675548111
536,balkanabat,39.5108,54.3671,5.65,55,98,1.96,TM,1675548112
537,bitadton,11.4969,122.0851,23.43,87,100,7.05,PH,1675548112
538,nha trang,12.25,109.1833,24.0,80,100,2.15,VN,1675548113
539,saint-francois,46.4154,3.9054,6.69,95,100,2.06,FR,1675547922
540,huejuquilla el alto,22.6,-103.8667,25.0,19,28,3.01,MX,1675548114
541,pangkalanbuun,-2.6833,111.6167,22.81,99,100,0.94,ID,1675548039
542,rognan,67.0953,15.3878,2.25,67,100,4.0,NO,1675548114
543,port-gentil,-0.7193,8.7815,26.98,89,20,3.09,GA,1675547867
544,vila do maio,15.1333,-23.2167,21.44,63,54,7.71,CV,1675548115
545,mandera,3.9366,41.867,27.25,25,87,3.29,KE,1675548097
546,basco,20.4487,121.9702,24.16,76,33,11.2,PH,1675547841
547,kushima,31.4583,131.2333,7.8,84,100,2.16,JP,1675548116
548,kulhudhuffushi,6.6221,73.07,26.67,78,100,2.08,MV,1675548001
549,astana,51.1801,71.446,-10.03,79,75,5.0,KZ,1675548117
550,riyadh,24.6877,46.7219,16.08,54,0,5.18,SA,1675548002
551,osakarovka,50.565,72.5692,-14.41,95,83,3.25,KZ,1675548117
552,dax,43.75,-1.1667,8.32,90,56,1.03,FR,1675548118
553,garhi khairo,28.0606,67.9803,17.83,32,12,1.19,PK,1675548119
554,imbituba,-28.24,-48.6703,23.72,83,39,3.42,BR,1675548119
555,kiama,-34.6833,150.8667,22.92,57,0,2.68,AU,1675548119
556,venado tuerto,-33.7456,-61.9688,29.31,29,0,1.9,AR,1675548120
557,broome,42.2506,-75.833,-7.17,60,100,4.12,US,1675548120
558,robertsport,6.7533,-11.3686,26.44,89,42,3.64,LR,1675548121
559,battle creek,42.3212,-85.1797,1.23,27,58,6.91,US,1675548096
560,kvitok,56.0724,98.4813,-18.9,100,100,0.75,RU,1675548122
561,jos,9.9167,8.9,21.26,19,60,2.24,NG,1675548123
562,san borja,-14.8167,-66.85,21.63,98,100,2.2,BO,1675548123
563,jasper,37.2001,-94.3502,12.19,45,20,9.77,US,1675548126
564,bilma,18.6853,12.9164,22.46,16,31,2.33,NE,1675548129
565,babstovo,48.1167,132.4833,-18.87,99,100,0.9,RU,1675548135
566,korla,41.7597,86.1469,-3.61,71,83,0.17,CN,1675547754
567,locri,38.2414,16.2623,9.07,85,56,3.67,IT,1675548142
568,thohoyandou,-22.9456,30.485,19.53,69,3,1.55,ZA,1675548144
569,pyaozerskiy,65.8333,31.1667,-14.71,95,17,3.14,RU,1675548148
570,aromashevo,56.8602,68.6375,-16.91,99,100,1.08,RU,1675548151
571,ucluelet,48.9329,-125.5528,9.17,93,100,1.34,CA,1675547896
572,cam ranh,11.9214,109.1591,23.98,78,20,2.57,VN,1675548153
573,kashi,39.4547,75.9797,-2.44,74,99,4.0,CN,1675548153
574,hirado,33.3597,129.5531,6.93,57,7,4.3,JP,1675548154
575,senanga,-16.1167,23.2667,21.62,83,95,2.25,ZM,1675548155
576,praia,14.9215,-23.5087,21.3,68,0,7.72,CV,1675547452
577,manggar,-2.8833,108.2667,25.28,88,100,2.61,ID,1675548156
578,cuamba,-14.8031,36.5372,21.05,95,93,1.23,MZ,1675548108
579,sosnovo-ozerskoye,52.5249,111.5418,-27.83,100,83,1.79,RU,1675548157
580,progreso,21.2833,-89.6667,21.06,74,74,7.74,MX,1675548158
581,kachug,53.9606,105.8817,-23.72,100,97,1.24,RU,1675548158
582,azovskaya,44.7908,38.6264,1.42,95,73,1.44,RU,1675548159
583,san rafael,-34.6177,-68.3301,31.25,16,0,5.84,AR,1675547995
584,wakkanai,45.4094,141.6739,-5.14,73,100,6.07,JP,1675548159
585,ibra,22.6906,58.5334,18.87,63,2,1.4,OM,1675548160
586,orlik,52.5178,99.825,-22.67,98,95,1.12,RU,1675548160
587,itarema,-2.9248,-39.9167,26.26,81,44,6.53,BR,1675548161
588,yanam,16.7333,82.2167,18.6,90,4,1.26,IN,1675548161
589,whitehorse,60.7161,-135.0538,-10.66,82,75,2.06,CA,1675547917
590,linxia,35.6003,103.2064,-0.05,44,94,1.01,CN,1675547750
591,soldotna,60.4878,-151.0583,-3.85,94,93,1.84,US,1675548163
592,vostok,46.4856,135.8833,-19.99,98,100,2.02,RU,1675548163
593,bolobo,-2.1667,16.2333,25.17,70,100,2.05,CD,1675548163
594,davila,18.4726,120.5763,19.99,70,28,1.75,PH,1675548164
595,saint-joseph,-21.3667,55.6167,25.21,84,98,4.43,RE,1675548164
596,kasongo-lunda,-6.4667,16.8167,20.66,99,100,1.03,CD,1675548165
597,henties bay,-22.116,14.2845,17.98,87,98,2.82,,1675547749
598,cape coast,5.1053,-1.2466,26.29,84,59,4.09,GH,1675548166
599,makaha,21.4694,-158.2175,22.44,72,100,1.54,US,1675548166
600,eureka,40.8021,-124.1637,18.12,50,100,4.02,US,1675547857
